[
  {
    "id": "ChIJ10c9E2ZDXz4Ru2NyjBi7aiE",
    "name": "10-PRO Consulting | Business Set Up, Relocation, Visas & Legal Services",
    "address": "Business Central Towers, Al Sufouh 2, Dubai Media City, Dubai, UAE",
    "category": "registered visa agent Dubai",
    "phone": "04 529 3354",
    "website": "https://10-pro.com/",
    "rating": 4.7,
    "reviewCount": 505,
    "latitude": 25.1007776,
    "longitude": 55.1694272,
    "logoUrl": "https://reportvisascam.com/business-images/logos/logo-ChIJ10c9E2ZDXz4Ru2NyjBi7aiE.jpg",
    "photos": [
      "https://reportvisascam.com/business-images/photos/photo_1-ChIJ10c9E2ZDXz4Ru2NyjBi7aiE.jpg",
      "https://reportvisascam.com/business-images/photos/photo_2-ChIJ10c9E2ZDXz4Ru2NyjBi7aiE.jpg"
    ]
  },
  {
    "id": "ChIJ31pcKGtrXz4R92jGT68rkVQ",
    "name": "4S Study Abroad | 5000+ Visa Approved | Education Consultant in Dubai",
    "address": "Sultan Business Centre, Office 221, Oud Metha, Dubai, UAE",
    "category": "education visa",
    "phone": "04 553 8909",
    "website": "https://www.4sstudyabroad.com/",
    "rating": 4.7,
    "reviewCount": 218,
    "latitude": 25.233408,
    "longitude": 55.3087672,
    "logoUrl": "https://reportvisascam.com/business-images/logos/logo-ChIJ31pcKGtrXz4R92jGT68rkVQ.jpg",
    "photos": [
      "https://reportvisascam.com/business-images/photos/photo_1-ChIJ31pcKGtrXz4R92jGT68rkVQ.jpg"
    ]
  },
  {
    "id": "ChIJ6RJA5qJdXz4RNAbDft-_XVw",
    "name": "A A Documents Clearing services LLC",
    "address": "119 office 1st Floor, Muteena, Deira, Dubai, UAE",
    "category": "document clearance",
    "phone": "055 547 3616",
    "website": "https://www.aadocumentsclearingservices.com/",
    "rating": 3.8,
    "reviewCount": 13,
    "latitude": 25.2742469,
    "longitude": 55.3276466,
    "logoUrl": "https://reportvisascam.com/business-images/logos/logo-ChIJ6RJA5qJdXz4RNAbDft-_XVw.jpg",
    "photos": [
      "https://reportvisascam.com/business-images/photos/photo_1-ChIJ6RJA5qJdXz4RNAbDft-_XVw.jpg"
    ]
  },
  {
    "id": "ChIJXf_UeQBDXz4ROdLA_nZbQmA",
    "name": "A to Z Document Clearing Services",
    "address": "19 3A St, Al Fahidi, Dubai, UAE",
    "category": "document clearance",
    "phone": "052 603 8558",
    "website": "http://www.a2zdocument.com/",
    "rating": 5.0,
    "reviewCount": 246,
    "latitude": 25.2645804,
    "longitude": 55.291883,
    "logoUrl": "https://reportvisascam.com/business-images/logos/logo-ChIJXf_UeQBDXz4ROdLA_nZbQmA.jpg",
    "photos": [
      "https://reportvisascam.com/business-images/photos/photo_1-ChIJXf_UeQBDXz4ROdLA_nZbQmA.jpg"
    ]
  },
  {
    "id": "benchmark-mofa",
    "name": "Benchmark MOFA Attestation, Certificate attestation Dubai",
    "address": "Business Bay, Dubai, UAE",
    "category": "attestation services",
    "phone": "04 123 4567",
    "website": "https://benchmarkattesation.com/",
    "rating": 4.8,
    "reviewCount": 324,
    "latitude": 25.1943,
    "longitude": 55.2856,
    "logoUrl": "https://via.placeholder.com/100x100?text=BM",
    "photos": []
  },
  {
    "id": "perfect-connection",
    "name": "Perfect Connection Document Clearing",
    "address": "DIFC, Dubai, UAE",
    "category": "document clearing",
    "phone": "04 987 6543",
    "website": "https://perfectconnection.ae/",
    "rating": 4.2,
    "reviewCount": 156,
    "latitude": 25.2131,
    "longitude": 55.2741,
    "logoUrl": "https://via.placeholder.com/100x100?text=PC",
    "photos": []
  },
  {
    "id": "wise-attestation",
    "name": "Wise Attestation",
    "address": "Bur Dubai, Dubai, UAE",
    "category": "attestation services",
    "phone": "04 456 7890",
    "website": "https://wiseattestation.com/",
    "rating": 4.5,
    "reviewCount": 89,
    "latitude": 25.2651,
    "longitude": 55.3021,
    "logoUrl": "https://via.placeholder.com/100x100?text=WA",
    "photos": []
  },
  {
    "id": "emirates-visa-pro",
    "name": "Emirates Visa Pro Services",
    "address": "Jumeirah Lakes Towers, Dubai, UAE",
    "category": "visa services",
    "phone": "04 321 9876",
    "website": "https://emiratesvisapro.com/",
    "rating": 4.6,
    "reviewCount": 234,
    "latitude": 25.0695,
    "longitude": 55.1411,
    "logoUrl": "https://via.placeholder.com/100x100?text=EVP",
    "photos": []
  },
  {
    "id": "dubai-immigration-hub",
    "name": "Dubai Immigration Hub",
    "address": "Al Karama, Dubai, UAE",
    "category": "immigration services",
    "phone": "04 567 8901",
    "website": "https://dubaiimmigrationhub.com/",
    "rating": 4.4,
    "reviewCount": 178,
    "latitude": 25.2408,
    "longitude": 55.3089,
    "logoUrl": "https://via.placeholder.com/100x100?text=DIH",
    "photos": []
  },
  {
    "id": "global-visa-consultants",
    "name": "Global Visa Consultants Dubai",
    "address": "Deira City Centre, Dubai, UAE",
    "category": "visa consultancy",
    "phone": "04 234 5678",
    "website": "https://globalvisadubai.com/",
    "rating": 4.3,
    "reviewCount": 145,
    "latitude": 25.2516,
    "longitude": 55.3253,
    "logoUrl": "https://via.placeholder.com/100x100?text=GVC",
    "photos": []
  },
  {
    "id": "express-documents",
    "name": "Express Documents Clearing LLC",
    "address": "Al Rigga, Deira, Dubai, UAE",
    "category": "document clearing",
    "phone": "04 345 6789",
    "website": "https://expressdocuments.ae/",
    "rating": 4.1,
    "reviewCount": 98,
    "latitude": 25.2654,
    "longitude": 55.3142,
    "logoUrl": "https://via.placeholder.com/100x100?text=ED",
    "photos": []
  },
  {
    "id": "fast-track-visa",
    "name": "Fast Track Visa Services",
    "address": "Dubai Marina, Dubai, UAE",
    "category": "visa processing",
    "phone": "04 456 7890",
    "website": "https://fasttrackvisadubai.com/",
    "rating": 4.7,
    "reviewCount": 289,
    "latitude": 25.0762,
    "longitude": 55.1388,
    "logoUrl": "https://via.placeholder.com/100x100?text=FTV",
    "photos": []
  },
  {
    "id": "al-noor-services",
    "name": "Al Noor PRO Services",
    "address": "Satwa, Dubai, UAE",
    "category": "PRO services",
    "phone": "04 567 8901",
    "website": "https://alnoorpro.ae/",
    "rating": 4.0,
    "reviewCount": 67,
    "latitude": 25.2298,
    "longitude": 55.2609,
    "logoUrl": "https://via.placeholder.com/100x100?text=ANS",
    "photos": []
  },
  {
    "id": "golden-visa-center",
    "name": "Golden Visa Center Dubai",
    "address": "Downtown Dubai, UAE",
    "category": "golden visa",
    "phone": "04 678 9012",
    "website": "https://goldenvisacenter.ae/",
    "rating": 4.9,
    "reviewCount": 456,
    "latitude": 25.1968,
    "longitude": 55.2742,
    "logoUrl": "https://via.placeholder.com/100x100?text=GV",
    "photos": []
  },
  {
    "id": "smart-visa-solutions",
    "name": "Smart Visa Solutions",
    "address": "Al Qusais, Dubai, UAE",
    "category": "visa solutions",
    "phone": "04 789 0123",
    "website": "https://smartvisasolutions.ae/",
    "rating": 4.2,
    "reviewCount": 123,
    "latitude": 25.2941,
    "longitude": 55.3811,
    "logoUrl": "https://via.placeholder.com/100x100?text=SVS",
    "photos": []
  },
  {
    "id": "premium-attestation",
    "name": "Premium Attestation Services",
    "address": "Trade Centre, Dubai, UAE",
    "category": "attestation",
    "phone": "04 890 1234",
    "website": "https://premiumattestation.ae/",
    "rating": 4.6,
    "reviewCount": 201,
    "latitude": 25.2285,
    "longitude": 55.285,
    "logoUrl": "https://via.placeholder.com/100x100?text=PAS",
    "photos": []
  },
  {
    "id": "reliable-pro-services",
    "name": "Reliable PRO Services Dubai",
    "address": "Naif, Deira, Dubai, UAE",
    "category": "PRO services",
    "phone": "04 901 2345",
    "website": "https://reliablepro.ae/",
    "rating": 4.3,
    "reviewCount": 156,
    "latitude": 25.2693,
    "longitude": 55.3086,
    "logoUrl": "https://via.placeholder.com/100x100?text=RPS",
    "photos": []
  },
  {
    "id": "dubai-work-visa",
    "name": "Dubai Work Visa Center",
    "address": "Al Garhoud, Dubai, UAE",
    "category": "work visa",
    "phone": "04 012 3456",
    "website": "https://dubaiworkvisa.com/",
    "rating": 4.4,
    "reviewCount": 267,
    "latitude": 25.2532,
    "longitude": 55.3657,
    "logoUrl": "https://via.placeholder.com/100x100?text=DWV",
    "photos": []
  },
  {
    "id": "elite-document-services",
    "name": "Elite Document Services",
    "address": "Jumeirah, Dubai, UAE",
    "category": "document services",
    "phone": "04 123 4567",
    "website": "https://elitedocuments.ae/",
    "rating": 4.5,
    "reviewCount": 189,
    "latitude": 25.2048,
    "longitude": 55.2708,
    "logoUrl": "https://via.placeholder.com/100x100?text=EDS",
    "photos": []
  },
  {
    "id": "uae-immigration-experts",
    "name": "UAE Immigration Experts",
    "address": "Baniyas Square, Deira, Dubai, UAE",
    "category": "immigration",
    "phone": "04 234 5678",
    "website": "https://uaeimmigrationexperts.com/",
    "rating": 4.1,
    "reviewCount": 134,
    "latitude": 25.2666,
    "longitude": 55.3059,
    "logoUrl": "https://via.placeholder.com/100x100?text=UIE",
    "photos": []
  },
  {
    "id": "swift-clearing-services",
    "name": "Swift Clearing Services",
    "address": "Al Fahidi Historical District, Dubai, UAE",
    "category": "clearing services",
    "phone": "04 345 6789",
    "website": "https://swiftclearing.ae/",
    "rating": 4.0,
    "reviewCount": 76,
    "latitude": 25.2633,
    "longitude": 55.2959,
    "logoUrl": "https://via.placeholder.com/100x100?text=SCS",
    "photos": []
  },
  {
    "id": "mega-visa-services",
    "name": "Mega Visa Services Dubai",
    "address": "Mankhool, Bur Dubai, UAE",
    "category": "visa services",
    "phone": "04 456 7890",
    "website": "https://megavisaservices.ae/",
    "rating": 4.3,
    "reviewCount": 198,
    "latitude": 25.2446,
    "longitude": 55.2929,
    "logoUrl": "https://via.placeholder.com/100x100?text=MVS",
    "photos": []
  },
  {
    "id": "apex-pro-consultants",
    "name": "Apex PRO Consultants",
    "address": "Port Saeed, Deira, Dubai, UAE",
    "category": "PRO consultancy",
    "phone": "04 567 8901",
    "website": "https://apexpro.ae/",
    "rating": 4.7,
    "reviewCount": 245,
    "latitude": 25.2598,
    "longitude": 55.3234,
    "logoUrl": "https://via.placeholder.com/100x100?text=APC",
    "photos": []
  },
  {
    "id": "royal-attestation",
    "name": "Royal Attestation Center",
    "address": "Al Karama, Dubai, UAE",
    "category": "attestation",
    "phone": "04 678 9012",
    "website": "https://royalattestation.ae/",
    "rating": 4.2,
    "reviewCount": 167,
    "latitude": 25.2408,
    "longitude": 55.3089,
    "logoUrl": "https://via.placeholder.com/100x100?text=RAC",
    "photos": []
  },
  {
    "id": "professional-visa-hub",
    "name": "Professional Visa Hub",
    "address": "Al Mizhar, Dubai, UAE",
    "category": "visa hub",
    "phone": "04 789 0123",
    "website": "https://professionalvisahub.com/",
    "rating": 4.4,
    "reviewCount": 212,
    "latitude": 25.2267,
    "longitude": 55.4341,
    "logoUrl": "https://via.placeholder.com/100x100?text=PVH",
    "photos": []
  },
  {
    "id": "trusted-documents",
    "name": "Trusted Documents Clearing",
    "address": "Hor Al Anz, Deira, Dubai, UAE",
    "category": "document clearing",
    "phone": "04 890 1234",
    "website": "https://trusteddocuments.ae/",
    "rating": 4.1,
    "reviewCount": 89,
    "latitude": 25.2847,
    "longitude": 55.3507,
    "logoUrl": "https://via.placeholder.com/100x100?text=TD",
    "photos": []
  },
  {
    "id": "first-choice-visa",
    "name": "First Choice Visa Services",
    "address": "Al Nahda, Dubai, UAE",
    "category": "visa services",
    "phone": "04 901 2345",
    "website": "https://firstchoicevisa.ae/",
    "rating": 4.6,
    "reviewCount": 278,
    "latitude": 25.2948,
    "longitude": 55.3811,
    "logoUrl": "https://via.placeholder.com/100x100?text=FCV",
    "photos": []
  },
  {
    "id": "supreme-pro-services",
    "name": "Supreme PRO Services",
    "address": "Al Barsha, Dubai, UAE",
    "category": "PRO services",
    "phone": "04 012 3456",
    "website": "https://supremepro.ae/",
    "rating": 4.3,
    "reviewCount": 145,
    "latitude": 25.1138,
    "longitude": 55.1979,
    "logoUrl": "https://via.placeholder.com/100x100?text=SPS",
    "photos": []
  },
  {
    "id": "excel-visa-center",
    "name": "Excel Visa Center Dubai",
    "address": "Muhaisnah, Dubai, UAE",
    "category": "visa center",
    "phone": "04 123 4567",
    "website": "https://excelvisacenter.ae/",
    "rating": 4.0,
    "reviewCount": 98,
    "latitude": 25.2617,
    "longitude": 55.4439,
    "logoUrl": "https://via.placeholder.com/100x100?text=EVC",
    "photos": []
  },
  {
    "id": "pioneer-attestation",
    "name": "Pioneer Attestation Services",
    "address": "Umm Hurair, Dubai, UAE",
    "category": "attestation",
    "phone": "04 234 5678",
    "website": "https://pioneerattestation.ae/",
    "rating": 4.5,
    "reviewCount": 203,
    "latitude": 25.2318,
    "longitude": 55.3198,
    "logoUrl": "https://via.placeholder.com/100x100?text=PAS",
    "photos": []
  },
  {
    "id": "dynamic-visa-solutions",
    "name": "Dynamic Visa Solutions",
    "address": "Al Qiyadah, Dubai, UAE",
    "category": "visa solutions",
    "phone": "04 345 6789",
    "website": "https://dynamicvisa.ae/",
    "rating": 4.2,
    "reviewCount": 167,
    "latitude": 25.2189,
    "longitude": 55.2567,
    "logoUrl": "https://via.placeholder.com/100x100?text=DVS",
    "photos": []
  },
  {
    "id": "master-pro-consultants",
    "name": "Master PRO Consultants",
    "address": "Al Twar, Dubai, UAE",
    "category": "PRO consultancy",
    "phone": "04 456 7890",
    "website": "https://masterpro.ae/",
    "rating": 4.4,
    "reviewCount": 189,
    "latitude": 25.2634,
    "longitude": 55.4234,
    "logoUrl": "https://via.placeholder.com/100x100?text=MPC",
    "photos": []
  },
  {
    "id": "platinum-documents",
    "name": "Platinum Documents Services",
    "address": "Oud Al Muteena, Dubai, UAE",
    "category": "document services",
    "phone": "04 567 8901",
    "website": "https://platinumdocuments.ae/",
    "rating": 4.1,
    "reviewCount": 123,
    "latitude": 25.2742,
    "longitude": 55.3276,
    "logoUrl": "https://via.placeholder.com/100x100?text=PDS",
    "photos": []
  },
  {
    "id": "crown-visa-services",
    "name": "Crown Visa Services Dubai",
    "address": "Al Rashidiya, Dubai, UAE",
    "category": "visa services",
    "phone": "04 678 9012",
    "website": "https://crownvisa.ae/",
    "rating": 4.6,
    "reviewCount": 234,
    "latitude": 25.2267,
    "longitude": 55.4341,
    "logoUrl": "https://via.placeholder.com/100x100?text=CVS",
    "photos": []
  },
  {
    "id": "liberty-clearing",
    "name": "Liberty Clearing Services",
    "address": "Festival City, Dubai, UAE",
    "category": "clearing services",
    "phone": "04 789 0123",
    "website": "https://libertyclearing.ae/",
    "rating": 4.3,
    "reviewCount": 156,
    "latitude": 25.2321,
    "longitude": 55.3575,
    "logoUrl": "https://via.placeholder.com/100x100?text=LCS",
    "photos": []
  },
  {
    "id": "ultimate-pro-services",
    "name": "Ultimate PRO Services",
    "address": "Al Wasl, Dubai, UAE",
    "category": "PRO services",
    "phone": "04 890 1234",
    "website": "https://ultimatepro.ae/",
    "rating": 4.5,
    "reviewCount": 198,
    "latitude": 25.2298,
    "longitude": 55.2609,
    "logoUrl": "https://via.placeholder.com/100x100?text=UPS",
    "photos": []
  },
  {
    "id": "prestige-visa-center",
    "name": "Prestige Visa Center",
    "address": "Al Khaleej, Dubai, UAE",
    "category": "visa center",
    "phone": "04 901 2345",
    "website": "https://prestigevisa.ae/",
    "rating": 4.2,
    "reviewCount": 167,
    "latitude": 25.2847,
    "longitude": 55.3507,
    "logoUrl": "https://via.placeholder.com/100x100?text=PVC",
    "photos": []
  },
  {
    "id": "diamond-attestation",
    "name": "Diamond Attestation Services",
    "address": "Zabeel, Dubai, UAE",
    "category": "attestation",
    "phone": "04 012 3456",
    "website": "https://diamondattestation.ae/",
    "rating": 4.7,
    "reviewCount": 289,
    "latitude": 25.2285,
    "longitude": 55.285,
    "logoUrl": "https://via.placeholder.com/100x100?text=DAS",
    "photos": []
  },
  {
    "id": "signature-documents",
    "name": "Signature Documents Clearing",
    "address": "Al Mamzar, Dubai, UAE",
    "category": "document clearing",
    "phone": "04 123 4567",
    "website": "https://signaturedocuments.ae/",
    "rating": 4.0,
    "reviewCount": 98,
    "latitude": 25.2893,
    "longitude": 55.3442,
    "logoUrl": "https://via.placeholder.com/100x100?text=SDC",
    "photos": []
  },
  {
    "id": "zenith-visa-hub",
    "name": "Zenith Visa Hub Dubai",
    "address": "Mirdif, Dubai, UAE",
    "category": "visa hub",
    "phone": "04 234 5678",
    "website": "https://zenithvisahub.ae/",
    "rating": 4.4,
    "reviewCount": 212,
    "latitude": 25.2189,
    "longitude": 55.4123,
    "logoUrl": "https://via.placeholder.com/100x100?text=ZVH",
    "photos": []
  },
  {
    "id": "alpha-pro-consultants",
    "name": "Alpha PRO Consultants",
    "address": "International City, Dubai, UAE",
    "category": "PRO consultancy",
    "phone": "04 345 6789",
    "website": "https://alphapro.ae/",
    "rating": 4.1,
    "reviewCount": 134,
    "latitude": 25.1375,
    "longitude": 55.4167,
    "logoUrl": "https://via.placeholder.com/100x100?text=APC",
    "photos": []
  },
  {
    "id": "crystal-visa-services",
    "name": "Crystal Visa Services",
    "address": "Dubai South, Dubai, UAE",
    "category": "visa services",
    "phone": "04 456 7890",
    "website": "https://crystalvisa.ae/",
    "rating": 4.3,
    "reviewCount": 178,
    "latitude": 24.8956,
    "longitude": 55.1612,
    "logoUrl": "https://via.placeholder.com/100x100?text=CVS",
    "photos": []
  },
  {
    "id": "infinity-clearing",
    "name": "Infinity Clearing Services",
    "address": "Dubai Investment Park, Dubai, UAE",
    "category": "clearing services",
    "phone": "04 567 8901",
    "website": "https://infinityclearing.ae/",
    "rating": 4.2,
    "reviewCount": 145,
    "latitude": 25.0311,
    "longitude": 55.1711,
    "logoUrl": "https://via.placeholder.com/100x100?text=ICS",
    "photos": []
  },
  {
    "id": "phoenix-attestation",
    "name": "Phoenix Attestation Center",
    "address": "Motor City, Dubai, UAE",
    "category": "attestation",
    "phone": "04 678 9012",
    "website": "https://phoenixattestation.ae/",
    "rating": 4.5,
    "reviewCount": 201,
    "latitude": 25.0458,
    "longitude": 55.2261,
    "logoUrl": "https://via.placeholder.com/100x100?text=PAC",
    "photos": []
  },
  {
    "id": "stellar-pro-services",
    "name": "Stellar PRO Services",
    "address": "The Gardens, Dubai, UAE",
    "category": "PRO services",
    "phone": "04 789 0123",
    "website": "https://stellarpro.ae/",
    "rating": 4.0,
    "reviewCount": 89,
    "latitude": 25.0665,
    "longitude": 55.1411,
    "logoUrl": "https://via.placeholder.com/100x100?text=SPS",
    "photos": []
  },
  {
    "id": "victory-visa-center",
    "name": "Victory Visa Center",
    "address": "Discovery Gardens, Dubai, UAE",
    "category": "visa center",
    "phone": "04 890 1234",
    "website": "https://victoryvisa.ae/",
    "rating": 4.4,
    "reviewCount": 167,
    "latitude": 25.0426,
    "longitude": 55.1211,
    "logoUrl": "https://via.placeholder.com/100x100?text=VVC",
    "photos": []
  },
  {
    "id": "executive-documents",
    "name": "Executive Documents Services",
    "address": "The Greens, Dubai, UAE",
    "category": "document services",
    "phone": "04 901 2345",
    "website": "https://executivedocuments.ae/",
    "rating": 4.6,
    "reviewCount": 234,
    "latitude": 25.0886,
    "longitude": 55.1652,
    "logoUrl": "https://via.placeholder.com/100x100?text=EDS",
    "photos": []
  },
  {
    "id": "elite-visa-solutions",
    "name": "Elite Visa Solutions Dubai",
    "address": "Barsha Heights, Dubai, UAE",
    "category": "visa solutions",
    "phone": "04 012 3456",
    "website": "https://elitevisasolutions.ae/",
    "rating": 4.3,
    "reviewCount": 189,
    "latitude": 25.0937,
    "longitude": 55.1735,
    "logoUrl": "https://via.placeholder.com/100x100?text=EVS",
    "photos": []
  }
]
